{"Count":50,"St":"OK","data":[{"Lon":"121.529686","Lat":"25.048124","Strlen":5,"Name":"新生高長安","Link":"http://210.241.67.167:80/abs2mjpg/mjpg?camera=228&resolution=352x240","ID":"1659","COUNTY":"臺北市","TOWN":"中山區","Level":"0,0","TS":"0"},{"Lon":"121.527672","Lat":"25.051857","Strlen":5,"Name":"新生高南京","Link":"http://210.241.67.167:80/abs2mjpg/mjpg?camera=227&resolution=352x240","ID":"1660","COUNTY":"臺北市","TOWN":"中山區","Level":"0,0","TS":"0"},{"Lon":"121.530716","Lat":"25.045948","Strlen":7,"Name":"市民快新生匝道","Link":"http://210.241.67.167:80/abs2mjpg/mjpg?camera=33&resolution=352x240","ID":"1667","COUNTY":"臺北市","TOWN":"中正區","Level":"0,0","TS":"0"},{"Lon":"121.532738","Lat":"25.045305","Strlen":5,"Name":"市民快松江","Link":"http://210.241.67.167:80/abs2mjpg/mjpg?camera=30&resolution=352x240","ID":"1657","COUNTY":"臺北市","TOWN":"中正區","Level":"0,0","TS":"0"},{"Lon":"121.536621","Lat":"25.0518","Strlen":5,"Name":"建國快南京","Link":"http://210.241.67.167:80/abs2mjpg/mjpg?camera=18&resolution=352x240","ID":"1575","COUNTY":"臺北市","TOWN":"中山區","Level":"0,0","TS":"0"},{"Lon":"121.536728","Lat":"25.048475","Strlen":5,"Name":"建國快長安","Link":"http://210.241.67.167:80/abs2mjpg/mjpg?camera=17&resolution=352x240","ID":"1564","COUNTY":"臺北市","TOWN":"中山區","Level":"0,0","TS":"0"},{"Lon":"121.529839","Lat":"25.043051","Strlen":5,"Name":"新生高忠孝","Link":"http://210.241.67.167:80/abs2mjpg/mjpg?camera=229&resolution=352x240","ID":"1658","COUNTY":"臺北市","TOWN":"中正區","Level":"0,0","TS":"0"},{"Lon":"121.536987","Lat":"25.044704","Strlen":8,"Name":"市民快建國北匝道","Link":"http://210.241.67.167:80/abs2mjpg/mjpg?camera=34&resolution=352x240","ID":"1668","COUNTY":"臺北市","TOWN":"大安區","Level":"0,0","TS":"0"},{"Lon":"121.527412","Lat":"25.057611","Strlen":5,"Name":"新生高民生","Link":"http://210.241.67.167:80/abs2mjpg/mjpg?camera=226&resolution=352x240","ID":"1661","COUNTY":"臺北市","TOWN":"中山區","Level":"0,0","TS":"0"},{"Lon":"121.537048","Lat":"25.057981","Strlen":5,"Name":"建國快民生","Link":"http://210.241.67.167:80/abs2mjpg/mjpg?camera=19&resolution=352x240","ID":"1582","COUNTY":"臺北市","TOWN":"中山區","Level":"0,0","TS":"0"},{"Lon":"121.537048","Lat":"25.041534","Strlen":5,"Name":"建國快忠孝","Link":"http://210.241.67.167:80/abs2mjpg/mjpg?camera=16&resolution=352x240","ID":"1562","COUNTY":"臺北市","TOWN":"大安區","Level":"0,0","TS":"0"},{"Lon":"121.520889","Lat":"25.048124","Strlen":5,"Name":"市民快中山","Link":"http://210.241.67.167:80/abs2mjpg/mjpg?camera=28&resolution=352x240","ID":"1627","COUNTY":"臺北市","TOWN":"中山區","Level":"0,0","TS":"0"},{"Lon":"121.520546","Lat":"25.048183","Strlen":9,"Name":"市民中山(西北角..","Link":"http://210.241.67.167:80/abs2mjpg/mjpg?camera=166&resolution=352x240","ID":"1654","COUNTY":"臺北市","TOWN":"中山區","Level":"0,0","TS":"0"},{"Lon":"121.520462","Lat":"25.047735","Strlen":9,"Name":"市民中山(西南角..","Link":"http://210.241.67.167:80/abs2mjpg/mjpg?camera=165&resolution=352x240","ID":"1626","COUNTY":"臺北市","TOWN":"中正區","Level":"0,0","TS":"0"},{"Lon":"121.533218","Lat":"25.062365","Strlen":9,"Name":"松江路-民權東路..","Link":"http://210.241.67.167:80/abs2mjpg/mjpg?camera=242&resolution=352x240","ID":"1389","COUNTY":"臺北市","TOWN":"中山區","Level":"0,0","TS":"0"},{"Lon":"121.527756","Lat":"25.062666","Strlen":5,"Name":"新生高民權","Link":"http://210.241.67.167:80/abs2mjpg/mjpg?camera=225&resolution=352x240","ID":"1662","COUNTY":"臺北市","TOWN":"中山區","Level":"0,0","TS":"0"},{"Lon":"121.536896","Lat":"25.062237","Strlen":5,"Name":"建國快民權","Link":"http://210.241.67.167:80/abs2mjpg/mjpg?camera=20&resolution=352x240","ID":"1593","COUNTY":"臺北市","TOWN":"中山區","Level":"0,0","TS":"0"},{"Lon":"121.538017","Lat":"25.038153","Strlen":5,"Name":"建國快仁愛","Link":"http://210.241.67.167:80/abs2mjpg/mjpg?camera=15&resolution=352x240","ID":"1561","COUNTY":"臺北市","TOWN":"大安區","Level":"0,0","TS":"0"},{"Lon":"121.516899","Lat":"25.048553","Strlen":5,"Name":"市民快承德","Link":"http://210.241.67.167:80/abs2mjpg/mjpg?camera=1&resolution=352x240","ID":"1546","COUNTY":"臺北市","TOWN":"中正區","Level":"0,0","TS":"0"},{"Lon":"121.516426","Lat":"25.048378","Strlen":8,"Name":"市民承德(南側)","Link":"http://210.241.67.167:80/abs2mjpg/mjpg?camera=163&resolution=352x240","ID":"1624","COUNTY":"臺北市","TOWN":"中正區","Level":"0,0","TS":"0"},{"Lon":"121.516319","Lat":"25.048883","Strlen":8,"Name":"市民承德(西側)","Link":"http://210.241.67.167:80/abs2mjpg/mjpg?camera=164&resolution=352x240","ID":"1623","COUNTY":"臺北市","TOWN":"中正區","Level":"0,0","TS":"0"},{"Lon":"121.522438","Lat":"25.06288","Strlen":13,"Name":"中山北路3段-民..","Link":"http://210.241.67.167:80/abs2mjpg/mjpg?camera=233&resolution=352x240","ID":"1380","COUNTY":"臺北市","TOWN":"中山區","Level":"0,0","TS":"0"},{"Lon":"121.533875","Lat":"25.067369","Strlen":5,"Name":"建國快松江","Link":"http://210.241.67.167:80/abs2mjpg/mjpg?camera=90&resolution=352x240","ID":"1388","COUNTY":"臺北市","TOWN":"中山區","Level":"0,0","TS":"0"},{"Lon":"121.513573","Lat":"25.049273","Strlen":8,"Name":"市民重慶(東側)","Link":"http://210.241.67.167:80/abs2mjpg/mjpg?camera=162&resolution=352x240","ID":"1666","COUNTY":"臺北市","TOWN":"中正區","Level":"0,0","TS":"0"},{"Lon":"121.537651","Lat":"25.033466","Strlen":5,"Name":"建國快信義","Link":"http://210.241.67.167:80/abs2mjpg/mjpg?camera=14&resolution=352x240","ID":"1560","COUNTY":"臺北市","TOWN":"大安區","Level":"0,0","TS":"0"},{"Lon":"121.513437","Lat":"25.047163","Strlen":9,"Name":"忠孝西路一段86..","Link":"http://210.241.67.148/axis-cgi/mjpg/video.cgi?camera=265&1373349686169","ID":"1622","COUNTY":"臺北市","TOWN":"中正區","Level":"0,0","TS":"0"},{"Lon":"121.518486","Lat":"25.06288","Strlen":8,"Name":"民權承德(東側)","Link":"http://210.241.67.167:80/abs2mjpg/mjpg?camera=161&resolution=352x240","ID":"1621","COUNTY":"臺北市","TOWN":"大同區","Level":"0,0","TS":"0"},{"Lon":"121.533249","Lat":"25.06827","Strlen":10,"Name":"民族東路-建國北..","Link":"http://210.241.67.167:80/abs2mjpg/mjpg?camera=241&resolution=352x240","ID":"1603","COUNTY":"臺北市","TOWN":"中山區","Level":"0,0","TS":"0"},{"Lon":"121.548958","Lat":"25.044937","Strlen":5,"Name":"市民快敦化","Link":"http://210.241.67.167:80/abs2mjpg/mjpg?camera=29&resolution=352x240","ID":"1655","COUNTY":"臺北市","TOWN":"大安區","Level":"0,0","TS":"0"},{"Lon":"121.54409","Lat":"25.063345","Strlen":12,"Name":"復興北路427巷..","Link":"http://210.241.67.167:80/abs2mjpg/mjpg?camera=245&resolution=352x240","ID":"1392","COUNTY":"臺北市","TOWN":"松山區","Level":"0,0","TS":"0"},{"Lon":"121.518013","Lat":"25.062899","Strlen":8,"Name":"民權承德(西側)","Link":"http://210.241.67.167:80/abs2mjpg/mjpg?camera=160&resolution=352x240","ID":"1620","COUNTY":"臺北市","TOWN":"大同區","Level":"0,0","TS":"0"},{"Lon":"121.544449","Lat":"25.063131","Strlen":12,"Name":"復興北路427巷..","Link":"http://210.241.67.167:80/abs2mjpg/mjpg?camera=243&resolution=352x240","ID":"1390","COUNTY":"臺北市","TOWN":"松山區","Level":"0,0","TS":"0"},{"Lon":"121.527907","Lat":"25.068376","Strlen":5,"Name":"新生高民族","Link":"http://210.241.67.154/axis-cgi/mjpg/video.cgi?camera=306","ID":"1663","COUNTY":"臺北市","TOWN":"中山區","Level":"0,0","TS":"0"},{"Lon":"121.54347948206","Lat":"25.066914493796","Strlen":16,"Name":"復興北路隧道南端..","Link":"http://210.241.67.150/axis-cgi/mjpg/video.cgi?camera=97","ID":"1733","COUNTY":"臺北市","TOWN":"中山區","Level":"0,0","TS":"0"},{"Lon":"121.548325","Lat":"25.038074","Strlen":5,"Name":"仁愛敦化2","Link":"http://210.241.67.167:80/abs2mjpg/mjpg?camera=174&resolution=352x240","ID":"1635","COUNTY":"臺北市","TOWN":"大安區","Level":"0,0","TS":"0"},{"Lon":"121.544449","Lat":"25.066532","Strlen":11,"Name":"復北隧道南口-民..","Link":"http://210.241.67.167:80/abs2mjpg/mjpg?camera=92&resolution=352x240","ID":"1728","COUNTY":"臺北市","TOWN":"松山區","Level":"0,0","TS":"0"},{"Lon":"121.548904","Lat":"25.038357","Strlen":5,"Name":"仁愛敦化1","Link":"http://210.241.67.167:80/abs2mjpg/mjpg?camera=173&resolution=352x240","ID":"1634","COUNTY":"臺北市","TOWN":"大安區","Level":"0,0","TS":"0"},{"Lon":"121.533554","Lat":"25.071138","Strlen":7,"Name":"建國快圓山匝道","Link":"http://210.241.67.167:80/abs2mjpg/mjpg?camera=22&resolution=352x240","ID":"1614","COUNTY":"臺北市","TOWN":"中山區","Level":"0,0","TS":"0"},{"Lon":"121.544174","Lat":"25.067156","Strlen":13,"Name":"復北隧道南向0K..","Link":"http://210.241.67.167:80/abs2mjpg/mjpg?camera=101&resolution=352x240","ID":"1734","COUNTY":"臺北市","TOWN":"松山區","Level":"0,0","TS":"0"},{"Lon":"121.548851","Lat":"25.037384","Strlen":5,"Name":"仁愛敦化4","Link":"http://210.241.67.167:80/abs2mjpg/mjpg?camera=176&resolution=352x240","ID":"1638","COUNTY":"臺北市","TOWN":"大安區","Level":"0,0","TS":"0"},{"Lon":"121.549385","Lat":"25.037889","Strlen":5,"Name":"仁愛敦化3","Link":"http://210.241.67.167:80/abs2mjpg/mjpg?camera=175&resolution=352x240","ID":"1637","COUNTY":"臺北市","TOWN":"大安區","Level":"0,0","TS":"0"},{"Lon":"121.54496887629","Lat":"25.067495874734","Strlen":13,"Name":"復北隧道北向0K..","Link":"http://210.241.67.147/axis-cgi/mjpg/video.cgi?camera=93","ID":"1729","COUNTY":"臺北市","TOWN":"松山區","Level":"0,0","TS":"0"},{"Lon":"121.544128","Lat":"25.068457","Strlen":13,"Name":"復北隧道南向0K..","Link":"http://210.241.67.167:80/abs2mjpg/mjpg?camera=100&resolution=352x240","ID":"1735","COUNTY":"臺北市","TOWN":"松山區","Level":"0,0","TS":"0"},{"Lon":"121.531069","Lat":"25.073094","Strlen":9,"Name":"國1南23.2K..","Link":"http://cctvn01.freeway.gov.tw/vStream.php?pm=161,A41,18","ID":"12308","COUNTY":"","TOWN":"","Level":"0,0","TS":"0"},{"Lon":"121.544472","Lat":"25.069021","Strlen":13,"Name":"復北隧道北向0K..","Link":"http://210.241.67.167:80/abs2mjpg/mjpg?camera=97&resolution=352x240","ID":"1730","COUNTY":"臺北市","TOWN":"松山區","Level":"0,0","TS":"0"},{"Lon":"121.536568","Lat":"25.072569","Strlen":8,"Name":"濱江街150巷口","Link":"http://210.241.67.167:80/abs2mjpg/mjpg?camera=239&resolution=352x240","ID":"1387","COUNTY":"臺北市","TOWN":"中山區","Level":"0,0","TS":"0"},{"Lon":"121.544128","Lat":"25.069605","Strlen":13,"Name":"復北隧道南向0K..","Link":"http://210.241.67.167:80/abs2mjpg/mjpg?camera=99&resolution=352x240","ID":"1548","COUNTY":"臺北市","TOWN":"松山區","Level":"0,0","TS":"0"},{"Lon":"121.536908","Lat":"25.072922","Strlen":9,"Name":"國1北22.7K..","Link":"http://cctvn01.freeway.gov.tw/vStream.php?pm=160,A40,6","ID":"12453","COUNTY":"","TOWN":"","Level":"0,0","TS":"0"},{"Lon":"121.544434","Lat":"25.069681","Strlen":13,"Name":"復北隧道北向0K..","Link":"http://210.241.67.167:80/abs2mjpg/mjpg?camera=94&resolution=352x240","ID":"1731","COUNTY":"臺北市","TOWN":"松山區","Level":"0,0","TS":"0"},{"Lon":"121.511307","Lat":"25.062767","Strlen":8,"Name":"延平民權(進城)","Link":"http://210.241.67.167:80/abs2mjpg/mjpg?camera=158&resolution=352x240","ID":"1619","COUNTY":"臺北市","TOWN":"大同區","Level":"0,0","TS":"0"}]}